,COVARIANCE_TYPE_APPROXIMATED,COVARIANCE_TYPE_DIAGONAL_KNOWN,COVARIANCE_TYPE_KNOWN,COVARIANCE_TYPE_UNKNOWN,altitude,header.frame_id,header.stamp.nanosec,header.stamp.sec,latitude,longitude,position_covariance.0,position_covariance.1,position_covariance.2,position_covariance.3,position_covariance.4,position_covariance.5,position_covariance.6,position_covariance.7,position_covariance.8,position_covariance_type,status.SERVICE_COMPASS,status.SERVICE_GALILEO,status.SERVICE_GLONASS,status.SERVICE_GPS,status.STATUS_FIX,status.STATUS_GBAS_FIX,status.STATUS_NO_FIX,status.STATUS_SBAS_FIX,status.service,status.status,ros_type,timestamp,topic,bag_file_reference
0,1,2,3,0,442.483,gps,457864951,1684917411,50.918219773333334,13.341465671666667,77.44000000000001,0.0,0.0,0.0,77.44000000000001,0.0,0.0,0.0,1239.0400000000002,1,4,8,2,1,0,2,-1,1,1,2,2,1684917411458225781,/emlid/fix,/mnt/data/sites/r4r-site/scanroot/freiberg/fg_20230524/fg_20230524_base
1,1,2,3,0,442.438,gps,454002313,1684917412,50.91821958,13.341465515,1.6848040000000002,0.0,0.0,0.0,1.9209960000000004,0.0,0.0,0.0,1239.0400000000002,1,4,8,2,1,0,2,-1,1,1,2,2,1684917412454343422,/emlid/fix,/mnt/data/sites/r4r-site/scanroot/freiberg/fg_20230524/fg_20230524_base
2,1,2,3,0,442.419,gps,455562615,1684917413,50.918218741666664,13.34146688,1.4641000000000004,0.0,0.0,0.0,1.628176,0.0,0.0,0.0,1239.0400000000002,1,4,8,2,1,0,2,-1,1,1,2,2,1684917413455952145,/emlid/fix,/mnt/data/sites/r4r-site/scanroot/freiberg/fg_20230524/fg_20230524_base
3,1,2,3,0,442.349,gps,453979688,1684917414,50.91821807666667,13.341468828333333,1.3595560000000004,0.0,0.0,0.0,1.4641000000000004,0.0,0.0,0.0,1239.0400000000002,1,4,8,2,1,0,2,-1,1,1,2,2,1684917414454177370,/emlid/fix,/mnt/data/sites/r4r-site/scanroot/freiberg/fg_20230524/fg_20230524_base
4,1,2,3,0,442.22499999999997,gps,453281603,1684917415,50.91821679666667,13.341471103333333,1.3087360000000003,0.0,0.0,0.0,1.5178240000000005,0.0,0.0,0.0,1239.0400000000002,1,4,8,2,1,0,2,-1,1,1,2,2,1684917415453479876,/emlid/fix,/mnt/data/sites/r4r-site/scanroot/freiberg/fg_20230524/fg_20230524_base
5,1,2,3,0,442.2,gps,455224708,1684917416,50.91821598333333,13.341472991666667,1.2100000000000002,0.0,0.0,0.0,1.3595560000000004,0.0,0.0,0.0,1239.0400000000002,1,4,8,2,1,0,2,-1,1,1,2,2,1684917416455553985,/emlid/fix,/mnt/data/sites/r4r-site/scanroot/freiberg/fg_20230524/fg_20230524_base
6,1,2,3,0,442.13399999999996,gps,453371780,1684917417,50.918214475,13.341476451666667,1.1151360000000001,0.0,0.0,0.0,1.2588840000000003,0.0,0.0,0.0,1239.0400000000002,1,4,8,2,1,0,2,-1,1,1,2,2,1684917417453629413,/emlid/fix,/mnt/data/sites/r4r-site/scanroot/freiberg/fg_20230524/fg_20230524_base
7,1,2,3,0,442.02299999999997,gps,454666244,1684917418,50.91821372,13.341478598333333,1.0241440000000004,0.0,0.0,0.0,1.1620840000000001,0.0,0.0,0.0,1239.0400000000002,1,4,8,2,1,0,2,-1,1,1,2,2,1684917418455010518,/emlid/fix,/mnt/data/sites/r4r-site/scanroot/freiberg/fg_20230524/fg_20230524_base
8,1,2,3,0,441.929,gps,454370776,1684917419,50.918213415,13.341479781666667,0.9801000000000002,0.0,0.0,0.0,1.1620840000000001,0.0,0.0,0.0,1239.0400000000002,1,4,8,2,1,0,2,-1,1,1,2,2,1684917419455056867,/emlid/fix,/mnt/data/sites/r4r-site/scanroot/freiberg/fg_20230524/fg_20230524_base
9,1,2,3,0,441.93699999999995,gps,455409944,1684917420,50.918212921666665,13.34148074,0.9801000000000002,0.0,0.0,0.0,1.1151360000000001,0.0,0.0,0.0,1239.0400000000002,1,4,8,2,1,0,2,-1,1,1,2,2,1684917420456083327,/emlid/fix,/mnt/data/sites/r4r-site/scanroot/freiberg/fg_20230524/fg_20230524_base
10,1,2,3,0,441.967,gps,455277881,1684917421,50.91821364166667,13.341479608333334,1.1664,0.0,0.0,0.0,1.3271039999999998,0.0,0.0,0.0,1474.56,1,4,8,2,1,0,2,-1,1,1,2,2,1684917421456046453,/emlid/fix,/mnt/data/sites/r4r-site/scanroot/freiberg/fg_20230524/fg_20230524_base
11,1,2,3,0,441.995,gps,460207203,1684917422,50.91821367166666,13.341479623333333,1.1664,0.0,0.0,0.0,1.3271039999999998,0.0,0.0,0.0,1474.56,1,4,8,2,1,0,2,-1,1,1,2,2,1684917422460642173,/emlid/fix,/mnt/data/sites/r4r-site/scanroot/freiberg/fg_20230524/fg_20230524_base
12,1,2,3,0,442.015,gps,452980331,1684917423,50.918213755,13.341479576666666,1.1664,0.0,0.0,0.0,1.3271039999999998,0.0,0.0,0.0,1474.56,1,4,8,2,1,0,2,-1,1,1,2,2,1684917423453238733,/emlid/fix,/mnt/data/sites/r4r-site/scanroot/freiberg/fg_20230524/fg_20230524_base
13,1,2,3,0,441.99899999999997,gps,454134546,1684917433,50.91821788833333,13.341474031666667,92.16,0.0,0.0,0.0,92.16,0.0,0.0,0.0,1474.56,1,4,8,2,1,0,2,-1,1,1,2,2,1684917433454316687,/emlid/fix,/mnt/data/sites/r4r-site/scanroot/freiberg/fg_20230524/fg_20230524_base
14,1,2,3,0,441.969,gps,456074466,1684917434,50.918217596666665,13.341473975,0.9216,0.0,0.0,0.0,1.016064,0.0,0.0,0.0,1474.56,1,4,8,2,1,0,2,-1,1,1,2,2,1684917434456381876,/emlid/fix,/mnt/data/sites/r4r-site/scanroot/freiberg/fg_20230524/fg_20230524_base
15,1,2,3,0,441.936,gps,453214031,1684917435,50.91821721,13.341474761666667,0.8760959999999999,0.0,0.0,0.0,0.9682559999999998,0.0,0.0,0.0,1474.56,1,4,8,2,1,0,2,-1,1,1,2,2,1684917435453608549,/emlid/fix,/mnt/data/sites/r4r-site/scanroot/freiberg/fg_20230524/fg_20230524_base
16,1,2,3,0,441.938,gps,456705150,1684917436,50.918216533333336,13.341476201666667,0.8760959999999999,0.0,0.0,0.0,0.9682559999999998,0.0,0.0,0.0,1474.56,1,4,8,2,1,0,2,-1,1,1,2,2,1684917436456921579,/emlid/fix,/mnt/data/sites/r4r-site/scanroot/freiberg/fg_20230524/fg_20230524_base
17,1,2,3,0,441.923,gps,452632005,1684917437,50.91821569,13.341477688333333,0.8317439999999998,0.0,0.0,0.0,0.9216,0.0,0.0,0.0,1474.56,1,4,8,2,1,0,2,-1,1,1,2,2,1684917437452913507,/emlid/fix,/mnt/data/sites/r4r-site/scanroot/freiberg/fg_20230524/fg_20230524_base
18,1,2,3,0,441.87399999999997,gps,455986664,1684917438,50.91821467166667,13.341479095,0.8317439999999998,0.0,0.0,0.0,0.9216,0.0,0.0,0.0,1474.56,1,4,8,2,1,0,2,-1,1,1,2,2,1684917438456358923,/emlid/fix,/mnt/data/sites/r4r-site/scanroot/freiberg/fg_20230524/fg_20230524_base
19,1,2,3,0,441.87699999999995,gps,453872897,1684917439,50.918214533333334,13.341479253333333,0.8317439999999998,0.0,0.0,0.0,0.8760959999999999,0.0,0.0,0.0,1474.56,1,4,8,2,1,0,2,-1,1,1,2,2,1684917439454254514,/emlid/fix,/mnt/data/sites/r4r-site/scanroot/freiberg/fg_20230524/fg_20230524_base
20,1,2,3,0,441.86199999999997,gps,457446572,1684917440,50.91821362666666,13.341481056666666,0.7055999999999999,0.0,0.0,0.0,0.788544,0.0,0.0,0.0,1474.56,1,4,8,2,1,0,2,-1,1,1,2,2,1684917440457676941,/emlid/fix,/mnt/data/sites/r4r-site/scanroot/freiberg/fg_20230524/fg_20230524_base
21,1,2,3,0,441.861,gps,453855396,1684917441,50.918213486666666,13.341481575,0.7055999999999999,0.0,0.0,0.0,0.788544,0.0,0.0,0.0,1474.56,1,4,8,2,1,0,2,-1,1,1,2,2,1684917441454203347,/emlid/fix,/mnt/data/sites/r4r-site/scanroot/freiberg/fg_20230524/fg_20230524_base
22,1,2,3,0,441.926,gps,458296506,1684917442,50.91821279166667,13.341482161666667,0.7464959999999999,0.0,0.0,0.0,0.788544,0.0,0.0,0.0,1474.56,1,4,8,2,1,0,2,-1,1,1,2,2,1684917442458504516,/emlid/fix,/mnt/data/sites/r4r-site/scanroot/freiberg/fg_20230524/fg_20230524_base
23,1,2,3,0,441.93699999999995,gps,453275591,1684917443,50.91821261166667,13.341482693333333,0.7464959999999999,0.0,0.0,0.0,0.8317439999999998,0.0,0.0,0.0,1474.56,1,4,8,2,1,0,2,-1,1,1,2,2,1684917443453472999,/emlid/fix,/mnt/data/sites/r4r-site/scanroot/freiberg/fg_20230524/fg_20230524_base
24,1,2,3,0,441.93399999999997,gps,458454984,1684917444,50.918212581666666,13.341483043333334,0.7464959999999999,0.0,0.0,0.0,0.8317439999999998,0.0,0.0,0.0,1474.56,1,4,8,2,1,0,2,-1,1,1,2,2,1684917444458715257,/emlid/fix,/mnt/data/sites/r4r-site/scanroot/freiberg/fg_20230524/fg_20230524_base
25,1,2,3,0,441.993,gps,452705047,1684917445,50.91821245166667,13.341482983333334,0.7464959999999999,0.0,0.0,0.0,0.8317439999999998,0.0,0.0,0.0,1474.56,1,4,8,2,1,0,2,-1,1,1,2,2,1684917445453088608,/emlid/fix,/mnt/data/sites/r4r-site/scanroot/freiberg/fg_20230524/fg_20230524_base
26,1,2,3,0,441.96799999999996,gps,453120675,1684917446,50.91821134166667,13.341484921666666,0.7055999999999999,0.0,0.0,0.0,0.9216,0.0,0.0,0.0,1474.56,1,4,8,2,1,0,2,-1,1,1,2,2,1684917446453423290,/emlid/fix,/mnt/data/sites/r4r-site/scanroot/freiberg/fg_20230524/fg_20230524_base
27,1,2,3,0,441.94,gps,449904198,1684917447,50.91820952333333,13.341487648333333,0.627264,0.0,0.0,0.0,0.9682559999999998,0.0,0.0,0.0,1474.56,1,4,8,2,1,0,2,-1,1,1,2,2,1684917447450112842,/emlid/fix,/mnt/data/sites/r4r-site/scanroot/freiberg/fg_20230524/fg_20230524_base
28,1,2,3,0,441.86699999999996,gps,453878183,1684917448,50.918208031666666,13.341490333333333,0.7464959999999999,0.0,0.0,0.0,1.2188160000000001,0.0,0.0,0.0,1474.56,1,4,8,2,1,0,2,-1,1,1,2,2,1684917448454070276,/emlid/fix,/mnt/data/sites/r4r-site/scanroot/freiberg/fg_20230524/fg_20230524_base
29,1,2,3,0,441.849,gps,450118659,1684917449,50.918207003333336,13.341491551666667,0.7464959999999999,0.0,0.0,0.0,1.2188160000000001,0.0,0.0,0.0,1474.56,1,4,8,2,1,0,2,-1,1,1,2,2,1684917449450450579,/emlid/fix,/mnt/data/sites/r4r-site/scanroot/freiberg/fg_20230524/fg_20230524_base
30,1,2,3,0,441.81899999999996,gps,453336316,1684917450,50.91820577166666,13.341493168333333,0.8760959999999999,0.0,0.0,0.0,1.4304160000000004,0.0,0.0,0.0,1730.5600000000002,1,4,8,2,1,0,2,-1,1,1,2,2,1684917450453655391,/emlid/fix,/mnt/data/sites/r4r-site/scanroot/freiberg/fg_20230524/fg_20230524_base
31,1,2,3,0,441.81899999999996,gps,458466611,1684917451,50.918204841666665,13.341494583333333,0.7464959999999999,0.0,0.0,0.0,1.2723839999999997,0.0,0.0,0.0,1474.56,1,4,8,2,1,0,2,-1,1,1,2,2,1684917451458778239,/emlid/fix,/mnt/data/sites/r4r-site/scanroot/freiberg/fg_20230524/fg_20230524_base
32,1,2,3,0,441.79999999999995,gps,455172738,1684917452,50.91820354,13.3414968,0.7464959999999999,0.0,0.0,0.0,1.2188160000000001,0.0,0.0,0.0,1474.56,1,4,8,2,1,0,2,-1,1,1,2,2,1684917452455514029,/emlid/fix,/mnt/data/sites/r4r-site/scanroot/freiberg/fg_20230524/fg_20230524_base
33,1,2,3,0,441.775,gps,450320300,1684917453,50.918203965000004,13.341495518333334,0.589824,0.0,0.0,0.0,1.016064,0.0,0.0,0.0,1474.56,1,4,8,2,1,0,2,-1,1,1,2,2,1684917453450597311,/emlid/fix,/mnt/data/sites/r4r-site/scanroot/freiberg/fg_20230524/fg_20230524_base
34,1,2,3,0,441.728,gps,455329239,1684917454,50.91820397,13.341495436666667,0.553536,0.0,0.0,0.0,1.1664,0.0,0.0,0.0,1474.56,1,4,8,2,1,0,2,-1,1,1,2,2,1684917454455739750,/emlid/fix,/mnt/data/sites/r4r-site/scanroot/freiberg/fg_20230524/fg_20230524_base
35,1,2,3,0,441.765,gps,449561983,1684917455,50.918204251666666,13.341494915,1.1151360000000001,0.0,0.0,0.0,2.359296,0.0,0.0,0.0,2621.4400000000005,1,4,8,2,1,0,2,-1,1,1,0,2,1684917455449737029,/emlid/fix,/mnt/data/sites/r4r-site/scanroot/freiberg/fg_20230524/fg_20230524_base
36,1,2,3,0,441.81,gps,452256712,1684917456,50.91820443,13.341494396666667,2.9859840000000006,0.0,0.0,0.0,4.596736000000001,0.0,0.0,0.0,2621.4400000000005,1,4,8,2,1,0,2,-1,1,1,0,2,1684917456452556573,/emlid/fix,/mnt/data/sites/r4r-site/scanroot/freiberg/fg_20230524/fg_20230524_base
37,1,2,3,0,441.66999999999996,gps,452861056,1684917457,50.918206166666664,13.341495243333334,5.4568959999999995,0.0,0.0,0.0,7.750656000000001,0.0,0.0,0.0,2621.4400000000005,1,4,8,2,1,0,2,-1,1,1,0,2,1684917457453245322,/emlid/fix,/mnt/data/sites/r4r-site/scanroot/freiberg/fg_20230524/fg_20230524_base
38,1,2,3,0,441.835,gps,452889415,1684917458,50.91820600166667,13.341494741666667,4.6656,0.0,0.0,0.0,6.969600000000001,0.0,0.0,0.0,1474.56,1,4,8,2,1,0,2,-1,1,1,0,2,1684917458453189445,/emlid/fix,/mnt/data/sites/r4r-site/scanroot/freiberg/fg_20230524/fg_20230524_base
39,1,2,3,0,441.63399999999996,gps,451212847,1684917459,50.91820667333333,13.341495373333334,5.76,0.0,0.0,0.0,8.2944,0.0,0.0,0.0,1474.56,1,4,8,2,1,0,2,-1,1,1,0,2,1684917459451556780,/emlid/fix,/mnt/data/sites/r4r-site/scanroot/freiberg/fg_20230524/fg_20230524_base
40,1,2,3,0,441.58,gps,451577815,1684917460,50.91820535833333,13.341497406666667,6.969600000000001,0.0,0.0,0.0,8.2944,0.0,0.0,0.0,1474.56,1,4,8,2,1,0,2,-1,1,1,0,2,1684917460451764042,/emlid/fix,/mnt/data/sites/r4r-site/scanroot/freiberg/fg_20230524/fg_20230524_base
41,1,2,3,0,441.65799999999996,gps,448504645,1684917461,50.918204556666666,13.341498586666667,5.475600000000002,0.0,0.0,0.0,9.7344,0.0,0.0,0.0,1730.5600000000002,1,4,8,2,1,0,2,-1,1,1,0,2,1684917461448758566,/emlid/fix,/mnt/data/sites/r4r-site/scanroot/freiberg/fg_20230524/fg_20230524_base
42,1,2,3,0,441.74199999999996,gps,451838881,1684917462,50.91820422666667,13.341499048333333,3.6864,0.0,0.0,0.0,5.76,0.0,0.0,0.0,1474.56,1,4,8,2,1,0,2,-1,1,1,0,2,1684917462452159408,/emlid/fix,/mnt/data/sites/r4r-site/scanroot/freiberg/fg_20230524/fg_20230524_base
43,1,2,3,0,441.78,gps,449322244,1684917463,50.918204571666664,13.341498368333333,5.4195839999999995,0.0,0.0,0.0,6.969600000000001,0.0,0.0,0.0,1474.56,1,4,8,2,1,0,2,-1,1,1,2,2,1684917463449606258,/emlid/fix,/mnt/data/sites/r4r-site/scanroot/freiberg/fg_20230524/fg_20230524_base
44,1,2,3,0,441.793,gps,451613191,1684917464,50.91820439333333,13.341498673333334,2.4336,0.0,0.0,0.0,4.064256,0.0,0.0,0.0,1474.56,1,4,8,2,1,0,2,-1,1,1,2,2,1684917464452003649,/emlid/fix,/mnt/data/sites/r4r-site/scanroot/freiberg/fg_20230524/fg_20230524_base
45,1,2,3,0,441.832,gps,453206214,1684917465,50.918204796666664,13.341498875,1.617984,0.0,0.0,0.0,2.742336,0.0,0.0,0.0,1474.56,1,4,8,2,1,0,2,-1,1,1,2,2,1684917465453452207,/emlid/fix,/mnt/data/sites/r4r-site/scanroot/freiberg/fg_20230524/fg_20230524_base
46,1,2,3,0,441.91999999999996,gps,458505495,1684917466,50.918206825,13.34149869,1.3829759999999998,0.0,0.0,0.0,1.7424000000000002,0.0,0.0,0.0,1474.56,1,4,8,2,1,0,2,-1,1,1,2,2,1684917466458807501,/emlid/fix,/mnt/data/sites/r4r-site/scanroot/freiberg/fg_20230524/fg_20230524_base
47,1,2,3,0,442.164,gps,454022271,1684917467,50.91820783666667,13.341499126666667,1.8279040000000002,0.0,0.0,0.0,1.557504,0.0,0.0,0.0,1730.5600000000002,1,4,8,2,1,0,2,-1,1,1,2,2,1684917467454395672,/emlid/fix,/mnt/data/sites/r4r-site/scanroot/freiberg/fg_20230524/fg_20230524_base
48,1,2,3,0,442.292,gps,455159982,1684917468,50.91820813166667,13.341499681666667,2.1199360000000005,0.0,0.0,0.0,1.4304160000000004,0.0,0.0,0.0,1730.5600000000002,1,4,8,2,1,0,2,-1,1,1,2,2,1684917468455351590,/emlid/fix,/mnt/data/sites/r4r-site/scanroot/freiberg/fg_20230524/fg_20230524_base
49,1,2,3,0,442.351,gps,451368975,1684917469,50.91820768666667,13.341501375,2.3531560000000002,0.0,0.0,0.0,1.4304160000000004,0.0,0.0,0.0,1730.5600000000002,1,4,8,2,1,0,2,-1,1,1,2,2,1684917469451681959,/emlid/fix,/mnt/data/sites/r4r-site/scanroot/freiberg/fg_20230524/fg_20230524_base
50,1,2,3,0,442.416,gps,458059897,1684917470,50.91820704333333,13.341501913333333,2.143296,0.0,0.0,0.0,1.2188160000000001,0.0,0.0,0.0,1474.56,1,4,8,2,1,0,2,-1,1,1,2,2,1684917470458364461,/emlid/fix,/mnt/data/sites/r4r-site/scanroot/freiberg/fg_20230524/fg_20230524_base
51,1,2,3,0,442.453,gps,453300356,1684917471,50.918206418333334,13.34150375,2.0050559999999997,0.0,0.0,0.0,1.2723839999999997,0.0,0.0,0.0,1474.56,1,4,8,2,1,0,2,-1,1,1,2,2,1684917471453473859,/emlid/fix,/mnt/data/sites/r4r-site/scanroot/freiberg/fg_20230524/fg_20230524_base
52,1,2,3,0,442.517,gps,458098767,1684917472,50.91820616166667,13.341504868333333,1.8063360000000002,0.0,0.0,0.0,1.2188160000000001,0.0,0.0,0.0,1474.56,1,4,8,2,1,0,2,-1,1,1,2,2,1684917472458285465,/emlid/fix,/mnt/data/sites/r4r-site/scanroot/freiberg/fg_20230524/fg_20230524_base
53,1,2,3,0,442.534,gps,452884414,1684917473,50.91820516666667,13.34150603,1.7424000000000002,0.0,0.0,0.0,1.1664,0.0,0.0,0.0,1474.56,1,4,8,2,1,0,2,-1,1,1,2,2,1684917473453207740,/emlid/fix,/mnt/data/sites/r4r-site/scanroot/freiberg/fg_20230524/fg_20230524_base
54,1,2,3,0,442.58099999999996,gps,453042980,1684917474,50.918205101666665,13.341506356666667,3.5645439999999997,0.0,0.0,0.0,2.262016,0.0,0.0,0.0,2621.4400000000005,1,4,8,2,1,0,2,-1,1,1,0,2,1684917474453428190,/emlid/fix,/mnt/data/sites/r4r-site/scanroot/freiberg/fg_20230524/fg_20230524_base
55,1,2,3,0,442.616,gps,452246410,1684917475,50.91820579666667,13.341504555,3.594816,0.0,0.0,0.0,1.9376639999999998,0.0,0.0,0.0,1474.56,1,4,8,2,1,0,2,-1,1,1,0,2,1684917475452571452,/emlid/fix,/mnt/data/sites/r4r-site/scanroot/freiberg/fg_20230524/fg_20230524_base
56,1,2,3,0,442.575,gps,456886257,1684917476,50.91820663666667,13.3415028,5.76,0.0,0.0,0.0,3.069504,0.0,0.0,0.0,1474.56,1,4,8,2,1,0,2,-1,1,1,2,2,1684917476457153288,/emlid/fix,/mnt/data/sites/r4r-site/scanroot/freiberg/fg_20230524/fg_20230524_base
57,1,2,3,0,442.63399999999996,gps,453623305,1684917477,50.91820756166667,13.341502248333333,1.8714239999999998,0.0,0.0,0.0,1.498176,0.0,0.0,0.0,1474.56,1,4,8,2,1,0,2,-1,1,1,2,2,1684917477453917367,/emlid/fix,/mnt/data/sites/r4r-site/scanroot/freiberg/fg_20230524/fg_20230524_base
58,1,2,3,0,442.674,gps,457533976,1684917478,50.91820826666667,13.341501158333333,1.3271039999999998,0.0,0.0,0.0,1.1151360000000001,0.0,0.0,0.0,1474.56,1,4,8,2,1,0,2,-1,1,1,2,2,1684917478457886347,/emlid/fix,/mnt/data/sites/r4r-site/scanroot/freiberg/fg_20230524/fg_20230524_base
59,1,2,3,0,442.775,gps,452289764,1684917479,50.918208865,13.34150014,1.1664,0.0,0.0,0.0,1.016064,0.0,0.0,0.0,1474.56,1,4,8,2,1,0,2,-1,1,1,2,2,1684917479452553654,/emlid/fix,/mnt/data/sites/r4r-site/scanroot/freiberg/fg_20230524/fg_20230524_base
60,1,2,3,0,442.861,gps,457196148,1684917480,50.91821012,13.341497853333333,1.3829759999999998,0.0,0.0,0.0,1.2188160000000001,0.0,0.0,0.0,1474.56,1,4,8,2,1,0,2,-1,1,1,2,2,1684917480457547105,/emlid/fix,/mnt/data/sites/r4r-site/scanroot/freiberg/fg_20230524/fg_20230524_base
61,1,2,3,0,442.86699999999996,gps,453852518,1684917481,50.918210433333336,13.341497195,1.557504,0.0,0.0,0.0,1.3829759999999998,0.0,0.0,0.0,1474.56,1,4,8,2,1,0,2,-1,1,1,2,2,1684917481454154055,/emlid/fix,/mnt/data/sites/r4r-site/scanroot/freiberg/fg_20230524/fg_20230524_base
62,1,2,3,0,442.81,gps,456732926,1684917482,50.918211551666666,13.341494771666667,1.498176,0.0,0.0,0.0,1.3829759999999998,0.0,0.0,0.0,1474.56,1,4,8,2,1,0,2,-1,1,1,2,2,1684917482457085431,/emlid/fix,/mnt/data/sites/r4r-site/scanroot/freiberg/fg_20230524/fg_20230524_base
63,1,2,3,0,442.888,gps,451207552,1684917483,50.91821312166667,13.34149195,1.44,0.0,0.0,0.0,1.3829759999999998,0.0,0.0,0.0,1474.56,1,4,8,2,1,0,2,-1,1,1,2,2,1684917483451466646,/emlid/fix,/mnt/data/sites/r4r-site/scanroot/freiberg/fg_20230524/fg_20230524_base
64,1,2,3,0,442.938,gps,457665786,1684917484,50.91821468333333,13.341490435,1.3271039999999998,0.0,0.0,0.0,1.2723839999999997,0.0,0.0,0.0,1474.56,1,4,8,2,1,0,2,-1,1,1,2,2,1684917484457833455,/emlid/fix,/mnt/data/sites/r4r-site/scanroot/freiberg/fg_20230524/fg_20230524_base
65,1,2,3,0,442.965,gps,452151145,1684917485,50.91821716166667,13.341492946666667,1.2723839999999997,0.0,0.0,0.0,1.2723839999999997,0.0,0.0,0.0,1474.56,1,4,8,2,1,0,2,-1,1,1,2,2,1684917485452382877,/emlid/fix,/mnt/data/sites/r4r-site/scanroot/freiberg/fg_20230524/fg_20230524_base
66,1,2,3,0,442.89599999999996,gps,455864439,1684917486,50.918220248333334,13.341496705,1.2723839999999997,0.0,0.0,0.0,1.2723839999999997,0.0,0.0,0.0,1474.56,1,4,8,2,1,0,2,-1,1,1,2,2,1684917486456061480,/emlid/fix,/mnt/data/sites/r4r-site/scanroot/freiberg/fg_20230524/fg_20230524_base
67,1,2,3,0,442.80199999999996,gps,452398049,1684917487,50.91822620666667,13.341501166666667,1.3829759999999998,0.0,0.0,0.0,1.44,0.0,0.0,0.0,1474.56,1,4,8,2,1,0,2,-1,1,1,2,2,1684917487452741670,/emlid/fix,/mnt/data/sites/r4r-site/scanroot/freiberg/fg_20230524/fg_20230524_base
68,1,2,3,0,442.668,gps,458295584,1684917488,50.918232726666666,13.341508046666666,1.2188160000000001,0.0,0.0,0.0,1.44,0.0,0.0,0.0,1474.56,1,4,8,2,1,0,2,-1,1,1,2,2,1684917488458461922,/emlid/fix,/mnt/data/sites/r4r-site/scanroot/freiberg/fg_20230524/fg_20230524_base
69,1,2,3,0,442.39,gps,457491373,1684917489,50.918238826666666,13.341514666666667,1.065024,0.0,0.0,0.0,1.44,0.0,0.0,0.0,1474.56,1,4,8,2,1,0,2,-1,1,1,2,2,1684917489457771652,/emlid/fix,/mnt/data/sites/r4r-site/scanroot/freiberg/fg_20230524/fg_20230524_base
70,1,2,3,0,442.23699999999997,gps,457323368,1684917490,50.91824166833333,13.341516911666666,1.2188160000000001,0.0,0.0,0.0,1.679616,0.0,0.0,0.0,1474.56,1,4,8,2,1,0,2,-1,1,1,2,2,1684917490457963652,/emlid/fix,/mnt/data/sites/r4r-site/scanroot/freiberg/fg_20230524/fg_20230524_base
71,1,2,3,0,442.19599999999997,gps,453118807,1684917491,50.91824252333333,13.341515223333333,1.2723839999999997,0.0,0.0,0.0,1.8714239999999998,0.0,0.0,0.0,1474.56,1,4,8,2,1,0,2,-1,1,1,2,2,1684917491453451850,/emlid/fix,/mnt/data/sites/r4r-site/scanroot/freiberg/fg_20230524/fg_20230524_base
72,1,2,3,0,442.156,gps,456899004,1684917492,50.91824319333333,13.341513996666666,1.2723839999999997,0.0,0.0,0.0,1.9376639999999998,0.0,0.0,0.0,1474.56,1,4,8,2,1,0,2,-1,1,1,2,2,1684917492457167465,/emlid/fix,/mnt/data/sites/r4r-site/scanroot/freiberg/fg_20230524/fg_20230524_base
73,1,2,3,0,442.12,gps,454828485,1684917493,50.91824537833333,13.341517433333333,1.2723839999999997,0.0,0.0,0.0,2.0050559999999997,0.0,0.0,0.0,1474.56,1,4,8,2,1,0,2,-1,1,1,2,2,1684917493455080881,/emlid/fix,/mnt/data/sites/r4r-site/scanroot/freiberg/fg_20230524/fg_20230524_base
74,1,2,3,0,442.09799999999996,gps,457803454,1684917494,50.918247228333335,13.341524626666667,1.2723839999999997,0.0,0.0,0.0,2.0050559999999997,0.0,0.0,0.0,1474.56,1,4,8,2,1,0,2,-1,1,1,2,2,1684917494458107906,/emlid/fix,/mnt/data/sites/r4r-site/scanroot/freiberg/fg_20230524/fg_20230524_base
75,1,2,3,0,442.116,gps,454977876,1684917495,50.918248588333334,13.341530608333333,1.2188160000000001,0.0,0.0,0.0,1.9376639999999998,0.0,0.0,0.0,1474.56,1,4,8,2,1,0,2,-1,1,1,2,2,1684917495455472482,/emlid/fix,/mnt/data/sites/r4r-site/scanroot/freiberg/fg_20230524/fg_20230524_base
76,1,2,3,0,442.149,gps,456971212,1684917496,50.918248813333335,13.341540903333334,1.3271039999999998,0.0,0.0,0.0,2.143296,0.0,0.0,0.0,1474.56,1,4,8,2,1,0,2,-1,1,1,2,2,1684917496457154448,/emlid/fix,/mnt/data/sites/r4r-site/scanroot/freiberg/fg_20230524/fg_20230524_base
77,1,2,3,0,442.12,gps,452553237,1684917497,50.91824828166666,13.341550393333334,0.9682559999999998,0.0,0.0,0.0,1.44,0.0,0.0,0.0,1474.56,1,4,8,2,1,0,2,-1,1,1,2,2,1684917497452789915,/emlid/fix,/mnt/data/sites/r4r-site/scanroot/freiberg/fg_20230524/fg_20230524_base
78,1,2,3,0,442.096,gps,455752331,1684917498,50.91824813,13.341556903333334,1.1151360000000001,0.0,0.0,0.0,1.7424000000000002,0.0,0.0,0.0,1474.56,1,4,8,2,1,0,2,-1,1,1,2,2,1684917498458840742,/emlid/fix,/mnt/data/sites/r4r-site/scanroot/freiberg/fg_20230524/fg_20230524_base
79,1,2,3,0,442.089,gps,452710632,1684917499,50.91824893166667,13.341560776666666,0.9801000000000002,0.0,0.0,0.0,1.5178240000000005,0.0,0.0,0.0,1239.0400000000002,1,4,8,2,1,0,2,-1,1,1,2,2,1684917499452974458,/emlid/fix,/mnt/data/sites/r4r-site/scanroot/freiberg/fg_20230524/fg_20230524_base
80,1,2,3,0,442.073,gps,455792305,1684917500,50.91824809333333,13.34156578,0.9370240000000002,0.0,0.0,0.0,1.5178240000000005,0.0,0.0,0.0,1239.0400000000002,1,4,8,2,1,0,2,-1,1,1,2,2,1684917500456190218,/emlid/fix,/mnt/data/sites/r4r-site/scanroot/freiberg/fg_20230524/fg_20230524_base
81,1,2,3,0,442.00199999999995,gps,452654795,1684917501,50.91824825333333,13.341567353333334,0.813604,0.0,0.0,0.0,1.3087360000000003,0.0,0.0,0.0,1239.0400000000002,1,4,8,2,1,0,2,-1,1,1,2,2,1684917501453173801,/emlid/fix,/mnt/data/sites/r4r-site/scanroot/freiberg/fg_20230524/fg_20230524_base
82,1,2,3,0,441.966,gps,458476353,1684917502,50.918249483333334,13.341573446666667,0.8949160000000002,0.0,0.0,0.0,1.4641000000000004,0.0,0.0,0.0,1239.0400000000002,1,4,8,2,1,0,2,-1,1,1,2,2,1684917502458720404,/emlid/fix,/mnt/data/sites/r4r-site/scanroot/freiberg/fg_20230524/fg_20230524_base
83,1,2,3,0,441.912,gps,453439571,1684917503,50.91824997,13.341578085,0.9370240000000002,0.0,0.0,0.0,1.572516,0.0,0.0,0.0,1239.0400000000002,1,4,8,2,1,0,2,-1,1,1,2,2,1684917503453733289,/emlid/fix,/mnt/data/sites/r4r-site/scanroot/freiberg/fg_20230524/fg_20230524_base
84,1,2,3,0,441.904,gps,459085146,1684917504,50.918251598333335,13.341582883333333,0.9370240000000002,0.0,0.0,0.0,1.572516,0.0,0.0,0.0,1239.0400000000002,1,4,8,2,1,0,2,-1,1,1,2,2,1684917504459450869,/emlid/fix,/mnt/data/sites/r4r-site/scanroot/freiberg/fg_20230524/fg_20230524_base
85,1,2,3,0,441.856,gps,452959274,1684917505,50.91825464833333,13.341591948333333,0.9370240000000002,0.0,0.0,0.0,1.5178240000000005,0.0,0.0,0.0,1239.0400000000002,1,4,8,2,1,0,2,-1,1,1,2,2,1684917505453403519,/emlid/fix,/mnt/data/sites/r4r-site/scanroot/freiberg/fg_20230524/fg_20230524_base
86,1,2,3,0,441.897,gps,458537503,1684917506,50.918260118333336,13.341601646666666,0.8949160000000002,0.0,0.0,0.0,1.4641000000000004,0.0,0.0,0.0,1239.0400000000002,1,4,8,2,1,0,2,-1,1,1,2,2,1684917506458827884,/emlid/fix,/mnt/data/sites/r4r-site/scanroot/freiberg/fg_20230524/fg_20230524_base
87,1,2,3,0,441.84299999999996,gps,454100555,1684917507,50.91826557666667,13.341612765,0.7779240000000001,0.0,0.0,0.0,1.2859560000000003,0.0,0.0,0.0,1128.96,1,4,8,2,1,0,2,-1,1,1,2,2,1684917507454408399,/emlid/fix,/mnt/data/sites/r4r-site/scanroot/freiberg/fg_20230524/fg_20230524_base
88,1,2,3,0,441.897,gps,460460864,1684917508,50.91827101166667,13.341622451666666,0.7744000000000002,0.0,0.0,0.0,1.3595560000000004,0.0,0.0,0.0,1239.0400000000002,1,4,8,2,1,0,2,-1,1,1,2,2,1684917508460709110,/emlid/fix,/mnt/data/sites/r4r-site/scanroot/freiberg/fg_20230524/fg_20230524_base
89,1,2,3,0,441.988,gps,453255901,1684917509,50.91827618666667,13.341633836666666,0.7361640000000002,0.0,0.0,0.0,1.3087360000000003,0.0,0.0,0.0,1239.0400000000002,1,4,8,2,1,0,2,-1,1,1,2,2,1684917509453571625,/emlid/fix,/mnt/data/sites/r4r-site/scanroot/freiberg/fg_20230524/fg_20230524_base
90,1,2,3,0,442.00899999999996,gps,454351953,1684917510,50.91828114333333,13.341645206666666,3.1897960000000003,0.0,0.0,0.0,5.973136000000002,0.0,0.0,0.0,5655.040000000001,1,4,8,2,1,0,2,-1,1,1,2,2,1684917510454603880,/emlid/fix,/mnt/data/sites/r4r-site/scanroot/freiberg/fg_20230524/fg_20230524_base
91,1,2,3,0,442.034,gps,452301965,1684917511,50.91828659833333,13.341656166666667,0.8317439999999998,0.0,0.0,0.0,1.498176,0.0,0.0,0.0,1474.56,1,4,8,2,1,0,2,-1,1,1,2,2,1684917511452582977,/emlid/fix,/mnt/data/sites/r4r-site/scanroot/freiberg/fg_20230524/fg_20230524_base
92,1,2,3,0,441.96799999999996,gps,456274399,1684917512,50.918291886666665,13.341667226666667,1.4616810000000002,0.0,0.0,0.0,2.5985440000000004,0.0,0.0,0.0,2460.1600000000003,1,4,8,2,1,0,2,-1,1,1,2,2,1684917512456574588,/emlid/fix,/mnt/data/sites/r4r-site/scanroot/freiberg/fg_20230524/fg_20230524_base
93,1,2,3,0,441.984,gps,451487917,1684917513,50.918296766666664,13.341679093333333,0.8537760000000001,0.0,0.0,0.0,1.3595560000000004,0.0,0.0,0.0,1239.0400000000002,1,4,8,2,1,0,2,-1,1,1,2,2,1684917513451636514,/emlid/fix,/mnt/data/sites/r4r-site/scanroot/freiberg/fg_20230524/fg_20230524_base
94,1,2,3,0,442.00199999999995,gps,457806318,1684917514,50.91830236333333,13.341689805,1.016064,0.0,0.0,0.0,1.679616,0.0,0.0,0.0,1474.56,1,4,8,2,1,0,2,-1,1,1,2,2,1684917514458100414,/emlid/fix,/mnt/data/sites/r4r-site/scanroot/freiberg/fg_20230524/fg_20230524_base
95,1,2,3,0,441.947,gps,459344534,1684917515,50.91830669833333,13.341701971666666,0.6988960000000001,0.0,0.0,0.0,1.069156,0.0,0.0,0.0,1239.0400000000002,1,4,8,2,1,0,2,-1,1,1,2,2,1684917515459602580,/emlid/fix,/mnt/data/sites/r4r-site/scanroot/freiberg/fg_20230524/fg_20230524_base
96,1,2,3,0,442.022,gps,456987761,1684917516,50.91831266333333,13.341712178333333,0.5270760000000001,0.0,0.0,0.0,0.7361640000000002,0.0,0.0,0.0,1239.0400000000002,1,4,8,2,1,0,2,-1,1,1,2,2,1684917516457234941,/emlid/fix,/mnt/data/sites/r4r-site/scanroot/freiberg/fg_20230524/fg_20230524_base
97,1,2,3,0,442.003,gps,454556972,1684917517,50.918316878333336,13.341723866666667,0.5270760000000001,0.0,0.0,0.0,0.8949160000000002,0.0,0.0,0.0,1239.0400000000002,1,4,8,2,1,0,2,-1,1,1,2,2,1684917517454965873,/emlid/fix,/mnt/data/sites/r4r-site/scanroot/freiberg/fg_20230524/fg_20230524_base
98,1,2,3,0,442.024,gps,458304374,1684917518,50.918321405,13.341736098333334,0.3794560000000001,0.0,0.0,0.0,0.43560000000000004,0.0,0.0,0.0,1239.0400000000002,1,4,8,2,1,0,2,-1,1,1,2,2,1684917518458632767,/emlid/fix,/mnt/data/sites/r4r-site/scanroot/freiberg/fg_20230524/fg_20230524_base
99,1,2,3,0,442.039,gps,454158045,1684917519,50.918326173333334,13.341747291666668,0.3528360000000001,0.0,0.0,0.0,0.3794560000000001,0.0,0.0,0.0,1239.0400000000002,1,4,8,2,1,0,2,-1,1,1,2,2,1684917519454421670,/emlid/fix,/mnt/data/sites/r4r-site/scanroot/freiberg/fg_20230524/fg_20230524_base
100,1,2,3,0,441.96099999999996,gps,462015615,1684917520,50.91833060333333,13.341759138333334,0.3271840000000001,0.0,0.0,0.0,0.407044,0.0,0.0,0.0,1239.0400000000002,1,4,8,2,1,0,2,-1,1,1,2,2,1684917520462367628,/emlid/fix,/mnt/data/sites/r4r-site/scanroot/freiberg/fg_20230524/fg_20230524_base
101,1,2,3,0,441.93899999999996,gps,455173471,1684917521,50.918334783333336,13.341770368333334,0.30250000000000005,0.0,0.0,0.0,0.3794560000000001,0.0,0.0,0.0,1239.0400000000002,1,4,8,2,1,0,2,-1,1,1,2,2,1684917521455510223,/emlid/fix,/mnt/data/sites/r4r-site/scanroot/freiberg/fg_20230524/fg_20230524_base
102,1,2,3,0,441.952,gps,458667456,1684917522,50.91833969,13.341781376666667,0.30250000000000005,0.0,0.0,0.0,0.3794560000000001,0.0,0.0,0.0,1239.0400000000002,1,4,8,2,1,0,2,-1,1,1,2,2,1684917522458948377,/emlid/fix,/mnt/data/sites/r4r-site/scanroot/freiberg/fg_20230524/fg_20230524_base
103,1,2,3,0,441.936,gps,455057841,1684917523,50.918344346666665,13.341793118333333,0.30250000000000005,0.0,0.0,0.0,0.3794560000000001,0.0,0.0,0.0,1239.0400000000002,1,4,8,2,1,0,2,-1,1,1,2,2,1684917523455236431,/emlid/fix,/mnt/data/sites/r4r-site/scanroot/freiberg/fg_20230524/fg_20230524_base
104,1,2,3,0,441.98199999999997,gps,462556917,1684917524,50.918349473333336,13.341804186666666,0.27878400000000003,0.0,0.0,0.0,0.3528360000000001,0.0,0.0,0.0,1239.0400000000002,1,4,8,2,1,0,2,-1,1,1,2,2,1684917524462836850,/emlid/fix,/mnt/data/sites/r4r-site/scanroot/freiberg/fg_20230524/fg_20230524_base
105,1,2,3,0,441.984,gps,454846552,1684917525,50.918353808333336,13.341815516666667,0.30250000000000005,0.0,0.0,0.0,0.3794560000000001,0.0,0.0,0.0,1239.0400000000002,1,4,8,2,1,0,2,-1,1,1,2,2,1684917525455038040,/emlid/fix,/mnt/data/sites/r4r-site/scanroot/freiberg/fg_20230524/fg_20230524_base
106,1,2,3,0,442.00899999999996,gps,461152511,1684917526,50.91835455166667,13.341817931666666,0.30250000000000005,0.0,0.0,0.0,0.3794560000000001,0.0,0.0,0.0,1239.0400000000002,1,4,8,2,1,0,2,-1,1,1,2,2,1684917526461430163,/emlid/fix,/mnt/data/sites/r4r-site/scanroot/freiberg/fg_20230524/fg_20230524_base
107,1,2,3,0,441.99399999999997,gps,456767199,1684917527,50.91835634666667,13.341821786666667,0.3271840000000001,0.0,0.0,0.0,0.43560000000000004,0.0,0.0,0.0,1239.0400000000002,1,4,8,2,1,0,2,-1,1,1,2,2,1684917527457362904,/emlid/fix,/mnt/data/sites/r4r-site/scanroot/freiberg/fg_20230524/fg_20230524_base
108,1,2,3,0,441.977,gps,460045719,1684917528,50.918360916666664,13.341830036666666,0.3794560000000001,0.0,0.0,0.0,0.3794560000000001,0.0,0.0,0.0,1239.0400000000002,1,4,8,2,1,0,2,-1,1,1,2,2,1684917528460375194,/emlid/fix,/mnt/data/sites/r4r-site/scanroot/freiberg/fg_20230524/fg_20230524_base
109,1,2,3,0,442.01399999999995,gps,450811296,1684917529,50.91836602833333,13.34184075,0.30250000000000005,0.0,0.0,0.0,0.407044,0.0,0.0,0.0,1239.0400000000002,1,4,8,2,1,0,2,-1,1,1,2,2,1684917529451200674,/emlid/fix,/mnt/data/sites/r4r-site/scanroot/freiberg/fg_20230524/fg_20230524_base
110,1,2,3,0,442.14599999999996,gps,459762175,1684917530,50.91837193166667,13.341850451666666,0.30250000000000005,0.0,0.0,0.0,0.43560000000000004,0.0,0.0,0.0,1239.0400000000002,1,4,8,2,1,0,2,-1,1,1,2,2,1684917530459960805,/emlid/fix,/mnt/data/sites/r4r-site/scanroot/freiberg/fg_20230524/fg_20230524_base
111,1,2,3,0,442.21099999999996,gps,454965412,1684917531,50.918377516666666,13.341860693333333,0.407044,0.0,0.0,0.0,0.5929,0.0,0.0,0.0,1239.0400000000002,1,4,8,2,1,0,2,-1,1,1,2,2,1684917531455280893,/emlid/fix,/mnt/data/sites/r4r-site/scanroot/freiberg/fg_20230524/fg_20230524_base
112,1,2,3,0,442.239,gps,458394320,1684917532,50.918382318333336,13.341872505,0.4956160000000001,0.0,0.0,0.0,0.7361640000000002,0.0,0.0,0.0,1239.0400000000002,1,4,8,2,1,0,2,-1,1,1,2,2,1684917532458672726,/emlid/fix,/mnt/data/sites/r4r-site/scanroot/freiberg/fg_20230524/fg_20230524_base
113,1,2,3,0,442.296,gps,454316141,1684917533,50.918387636666665,13.341883793333333,0.45158400000000004,0.0,0.0,0.0,0.7056000000000001,0.0,0.0,0.0,1128.96,1,4,8,2,1,0,2,-1,1,1,2,2,1684917533454572052,/emlid/fix,/mnt/data/sites/r4r-site/scanroot/freiberg/fg_20230524/fg_20230524_base
114,1,2,3,0,442.34,gps,459035709,1684917534,50.9183928,13.341895026666666,0.5595040000000001,0.0,0.0,0.0,0.8537760000000001,0.0,0.0,0.0,1239.0400000000002,1,4,8,2,1,0,2,-1,1,1,2,2,1684917534459294190,/emlid/fix,/mnt/data/sites/r4r-site/scanroot/freiberg/fg_20230524/fg_20230524_base
115,1,2,3,0,442.306,gps,455920911,1684917535,50.918397328333334,13.341906548333334,0.5595040000000001,0.0,0.0,0.0,0.8949160000000002,0.0,0.0,0.0,1239.0400000000002,1,4,8,2,1,0,2,-1,1,1,2,2,1684917535456136307,/emlid/fix,/mnt/data/sites/r4r-site/scanroot/freiberg/fg_20230524/fg_20230524_base
116,1,2,3,0,442.27799999999996,gps,458383617,1684917536,50.918400831666666,13.341913575,0.3271840000000001,0.0,0.0,0.0,0.5270760000000001,0.0,0.0,0.0,1239.0400000000002,1,4,8,2,1,0,2,-1,1,1,2,2,1684917536458661953,/emlid/fix,/mnt/data/sites/r4r-site/scanroot/freiberg/fg_20230524/fg_20230524_base
117,1,2,3,0,442.34,gps,457673256,1684917537,50.91840310833334,13.341916925,0.29811600000000005,0.0,0.0,0.0,0.45158400000000004,0.0,0.0,0.0,1128.96,1,4,8,2,1,0,2,-1,1,1,2,2,1684917537457884759,/emlid/fix,/mnt/data/sites/r4r-site/scanroot/freiberg/fg_20230524/fg_20230524_base
118,1,2,3,0,442.36699999999996,gps,462678062,1684917538,50.918404255,13.341918906666667,0.4802490000000001,0.0,0.0,0.0,0.7056000000000001,0.0,0.0,0.0,1128.96,1,4,8,2,1,0,2,-1,1,1,2,2,1684917538462951375,/emlid/fix,/mnt/data/sites/r4r-site/scanroot/freiberg/fg_20230524/fg_20230524_base
119,1,2,3,0,442.411,gps,456800210,1684917539,50.91840809166667,13.341927066666667,0.3457440000000001,0.0,0.0,0.0,0.5097960000000001,0.0,0.0,0.0,1128.96,1,4,8,2,1,0,2,-1,1,1,2,2,1684917539457160498,/emlid/fix,/mnt/data/sites/r4r-site/scanroot/freiberg/fg_20230524/fg_20230524_base
120,1,2,3,0,442.382,gps,458897495,1684917540,50.91841199,13.34193929,0.45158400000000004,0.0,0.0,0.0,0.7056000000000001,0.0,0.0,0.0,1128.96,1,4,8,2,1,0,2,-1,1,1,2,2,1684917540459110203,/emlid/fix,/mnt/data/sites/r4r-site/scanroot/freiberg/fg_20230524/fg_20230524_base
121,1,2,3,0,442.424,gps,456611590,1684917541,50.91841765666667,13.341948576666667,0.5097960000000001,0.0,0.0,0.0,0.815409,0.0,0.0,0.0,1128.96,1,4,8,2,1,0,2,-1,1,1,2,2,1684917541456891750,/emlid/fix,/mnt/data/sites/r4r-site/scanroot/freiberg/fg_20230524/fg_20230524_base
122,1,2,3,0,442.33,gps,458393461,1684917542,50.91842066833333,13.341953161666666,0.5929,0.0,0.0,0.0,0.9801000000000002,0.0,0.0,0.0,1239.0400000000002,1,4,8,2,1,0,2,-1,1,1,2,2,1684917542458586275,/emlid/fix,/mnt/data/sites/r4r-site/scanroot/freiberg/fg_20230524/fg_20230524_base
123,1,2,3,0,442.20099999999996,gps,454243399,1684917543,50.91842251166667,13.341959826666667,0.627264,0.0,0.0,0.0,1.069156,0.0,0.0,0.0,1239.0400000000002,1,4,8,2,1,0,2,-1,1,1,2,2,1684917543454507638,/emlid/fix,/mnt/data/sites/r4r-site/scanroot/freiberg/fg_20230524/fg_20230524_base
124,1,2,3,0,442.301,gps,459097231,1684917544,50.91842525166667,13.341962305,0.5595040000000001,0.0,0.0,0.0,1.0241440000000004,0.0,0.0,0.0,1239.0400000000002,1,4,8,2,1,0,2,-1,1,1,2,2,1684917544459426001,/emlid/fix,/mnt/data/sites/r4r-site/scanroot/freiberg/fg_20230524/fg_20230524_base
125,1,2,3,0,442.358,gps,454606906,1684917545,50.918424476666665,13.341963455,0.5270760000000001,0.0,0.0,0.0,1.0241440000000004,0.0,0.0,0.0,1239.0400000000002,1,4,8,2,1,0,2,-1,1,1,2,2,1684917545455004682,/emlid/fix,/mnt/data/sites/r4r-site/scanroot/freiberg/fg_20230524/fg_20230524_base
126,1,2,3,0,442.35499999999996,gps,457242474,1684917546,50.91842414166667,13.341963823333334,0.8648999999999999,0.0,0.0,0.0,1.3876840000000004,0.0,0.0,0.0,2460.1600000000003,1,4,8,2,1,0,2,-1,1,1,2,2,1684917546457537279,/emlid/fix,/mnt/data/sites/r4r-site/scanroot/freiberg/fg_20230524/fg_20230524_base
127,1,2,3,0,442.387,gps,453674786,1684917547,50.918424003333335,13.34196454,0.5595040000000001,0.0,0.0,0.0,0.8537760000000001,0.0,0.0,0.0,1239.0400000000002,1,4,8,2,1,0,2,-1,1,1,2,2,1684917547453944682,/emlid/fix,/mnt/data/sites/r4r-site/scanroot/freiberg/fg_20230524/fg_20230524_base
128,1,2,3,0,442.301,gps,459317618,1684917548,50.918422625,13.34196634,0.5595040000000001,0.0,0.0,0.0,0.8949160000000002,0.0,0.0,0.0,1239.0400000000002,1,4,8,2,1,0,2,-1,1,1,2,2,1684917548459670230,/emlid/fix,/mnt/data/sites/r4r-site/scanroot/freiberg/fg_20230524/fg_20230524_base
129,1,2,3,0,442.239,gps,449319448,1684917549,50.91842394166667,13.341971888333333,0.3528360000000001,0.0,0.0,0.0,0.5929,0.0,0.0,0.0,1239.0400000000002,1,4,8,2,1,0,2,-1,1,1,2,2,1684917549449591242,/emlid/fix,/mnt/data/sites/r4r-site/scanroot/freiberg/fg_20230524/fg_20230524_base
130,1,2,3,0,442.29499999999996,gps,458561081,1684917550,50.918426688333334,13.341981343333334,0.4956160000000001,0.0,0.0,0.0,0.813604,0.0,0.0,0.0,1239.0400000000002,1,4,8,2,1,0,2,-1,1,1,2,2,1684917550458880122,/emlid/fix,/mnt/data/sites/r4r-site/scanroot/freiberg/fg_20230524/fg_20230524_base
131,1,2,3,0,442.29200000000003,gps,452620123,1684917551,50.918428668333334,13.341986176666667,0.254016,0.0,0.0,0.0,0.42380100000000004,0.0,0.0,0.0,1128.96,1,4,8,2,1,0,2,-1,1,1,2,2,1684917551452949457,/emlid/fix,/mnt/data/sites/r4r-site/scanroot/freiberg/fg_20230524/fg_20230524_base
132,1,2,3,0,442.294,gps,457591495,1684917552,50.91842655833333,13.341983266666666,0.37088099999999996,0.0,0.0,0.0,0.636804,0.0,0.0,0.0,1128.96,1,4,8,2,1,0,2,-1,1,1,2,2,1684917552458076765,/emlid/fix,/mnt/data/sites/r4r-site/scanroot/freiberg/fg_20230524/fg_20230524_base
133,1,2,3,0,442.27599999999995,gps,453919325,1684917553,50.918426925,13.34198254,0.8099999999999998,0.0,0.0,0.0,1.4400000000000004,0.0,0.0,0.0,2304.0,1,4,8,2,1,0,2,-1,1,1,2,2,1684917553454266342,/emlid/fix,/mnt/data/sites/r4r-site/scanroot/freiberg/fg_20230524/fg_20230524_base
134,1,2,3,0,442.26099999999997,gps,457041045,1684917554,50.91842751666667,13.341983743333333,0.45158400000000004,0.0,0.0,0.0,0.815409,0.0,0.0,0.0,1128.96,1,4,8,2,1,0,2,-1,1,1,2,2,1684917554457327650,/emlid/fix,/mnt/data/sites/r4r-site/scanroot/freiberg/fg_20230524/fg_20230524_base
135,1,2,3,0,442.286,gps,456359193,1684917555,50.918429685,13.34198399,0.42380100000000004,0.0,0.0,0.0,0.670761,0.0,0.0,0.0,1128.96,1,4,8,2,1,0,2,-1,1,1,2,2,1684917555456701621,/emlid/fix,/mnt/data/sites/r4r-site/scanroot/freiberg/fg_20230524/fg_20230524_base
136,1,2,3,0,442.272,gps,459350493,1684917556,50.91842937333333,13.34198544,0.5097960000000001,0.0,0.0,0.0,0.741321,0.0,0.0,0.0,1128.96,1,4,8,2,1,0,2,-1,1,1,2,2,1684917556459573208,/emlid/fix,/mnt/data/sites/r4r-site/scanroot/freiberg/fg_20230524/fg_20230524_base
137,1,2,3,0,442.269,gps,454716985,1684917557,50.918431991666665,13.341990371666666,0.275625,0.0,0.0,0.0,0.3214890000000001,0.0,0.0,0.0,1128.96,1,4,8,2,1,0,2,-1,1,1,2,2,1684917557455253474,/emlid/fix,/mnt/data/sites/r4r-site/scanroot/freiberg/fg_20230524/fg_20230524_base
138,1,2,3,0,442.313,gps,459483605,1684917558,50.918436263333334,13.342000693333333,0.275625,0.0,0.0,0.0,0.29811600000000005,0.0,0.0,0.0,1128.96,1,4,8,2,1,0,2,-1,1,1,2,2,1684917558459769350,/emlid/fix,/mnt/data/sites/r4r-site/scanroot/freiberg/fg_20230524/fg_20230524_base
139,1,2,3,0,442.349,gps,453212518,1684917559,50.918441555,13.342011206666667,0.275625,0.0,0.0,0.0,0.275625,0.0,0.0,0.0,1128.96,1,4,8,2,1,0,2,-1,1,1,2,2,1684917559453384277,/emlid/fix,/mnt/data/sites/r4r-site/scanroot/freiberg/fg_20230524/fg_20230524_base
140,1,2,3,0,442.42900000000003,gps,459433443,1684917560,50.91844639166667,13.342020273333333,0.275625,0.0,0.0,0.0,0.29811600000000005,0.0,0.0,0.0,1128.96,1,4,8,2,1,0,2,-1,1,1,2,2,1684917560459732791,/emlid/fix,/mnt/data/sites/r4r-site/scanroot/freiberg/fg_20230524/fg_20230524_base
141,1,2,3,0,442.402,gps,457495013,1684917561,50.91845060833333,13.342029526666666,0.29811600000000005,0.0,0.0,0.0,0.29811600000000005,0.0,0.0,0.0,1128.96,1,4,8,2,1,0,2,-1,1,1,2,2,1684917561458757808,/emlid/fix,/mnt/data/sites/r4r-site/scanroot/freiberg/fg_20230524/fg_20230524_base
142,1,2,3,0,442.356,gps,459434365,1684917562,50.918455206666664,13.342041028333334,0.6084,0.0,0.0,0.0,0.6084,0.0,0.0,0.0,2304.0,1,4,8,2,1,0,2,-1,1,1,2,2,1684917562459716707,/emlid/fix,/mnt/data/sites/r4r-site/scanroot/freiberg/fg_20230524/fg_20230524_base
143,1,2,3,0,442.312,gps,452656428,1684917563,50.918460735,13.342051571666667,0.5625,0.0,0.0,0.0,0.5625,0.0,0.0,0.0,2304.0,1,4,8,2,1,0,2,-1,1,1,2,2,1684917563452991729,/emlid/fix,/mnt/data/sites/r4r-site/scanroot/freiberg/fg_20230524/fg_20230524_base
144,1,2,3,0,442.259,gps,464834884,1684917564,50.91846381333333,13.3420596,0.29811600000000005,0.0,0.0,0.0,0.29811600000000005,0.0,0.0,0.0,1128.96,1,4,8,2,1,0,2,-1,1,1,2,2,1684917564465040673,/emlid/fix,/mnt/data/sites/r4r-site/scanroot/freiberg/fg_20230524/fg_20230524_base
145,1,2,3,0,442.221,gps,456192793,1684917565,50.91846614166667,13.34206505,0.7568999999999998,0.0,0.0,0.0,0.9216,0.0,0.0,0.0,2304.0,1,4,8,2,1,0,2,-1,1,1,2,2,1684917565456513952,/emlid/fix,/mnt/data/sites/r4r-site/scanroot/freiberg/fg_20230524/fg_20230524_base
146,1,2,3,0,442.277,gps,468125546,1684917566,50.918470713333335,13.342074038333333,0.39690000000000003,0.0,0.0,0.0,0.6037290000000001,0.0,0.0,0.0,1128.96,1,4,8,2,1,0,2,-1,1,1,2,2,1684917566468436163,/emlid/fix,/mnt/data/sites/r4r-site/scanroot/freiberg/fg_20230524/fg_20230524_base
147,1,2,3,0,442.189,gps,456248127,1684917567,50.91847524,13.342085013333334,0.8648999999999999,0.0,0.0,0.0,1.5129,0.0,0.0,0.0,2304.0,1,4,8,2,1,0,2,-1,1,1,2,2,1684917567456854192,/emlid/fix,/mnt/data/sites/r4r-site/scanroot/freiberg/fg_20230524/fg_20230524_base
148,1,2,3,0,442.064,gps,462341693,1684917568,50.91848015833333,13.342095963333334,0.9216,0.0,0.0,0.0,1.6641000000000001,0.0,0.0,0.0,2304.0,1,4,8,2,1,0,2,-1,1,1,2,2,1684917568462709399,/emlid/fix,/mnt/data/sites/r4r-site/scanroot/freiberg/fg_20230524/fg_20230524_base
149,1,2,3,0,442.025,gps,454664001,1684917569,50.91848535166667,13.342107031666666,1.110916,0.0,0.0,0.0,2.0334760000000003,0.0,0.0,0.0,2460.1600000000003,1,4,8,2,1,0,2,-1,1,1,2,2,1684917569454876993,/emlid/fix,/mnt/data/sites/r4r-site/scanroot/freiberg/fg_20230524/fg_20230524_base
150,1,2,3,0,442.062,gps,462159183,1684917570,50.91848998333333,13.342117756666667,1.177225,0.0,0.0,0.0,2.214144,0.0,0.0,0.0,2460.1600000000003,1,4,8,2,1,0,2,-1,1,1,2,2,1684917570462571164,/emlid/fix,/mnt/data/sites/r4r-site/scanroot/freiberg/fg_20230524/fg_20230524_base
151,1,2,3,0,442.06,gps,455925975,1684917571,50.91849478333334,13.342129033333332,0.8082009999999998,0.0,0.0,0.0,0.9235209999999999,0.0,0.0,0.0,2460.1600000000003,1,4,8,2,1,0,2,-1,1,1,2,2,1684917571456207145,/emlid/fix,/mnt/data/sites/r4r-site/scanroot/freiberg/fg_20230524/fg_20230524_base
152,1,2,3,0,442.115,gps,458947848,1684917572,50.91849891333333,13.34213705,0.3528360000000001,0.0,0.0,0.0,0.3528360000000001,0.0,0.0,0.0,1239.0400000000002,1,4,8,2,1,0,2,-1,1,1,2,2,1684917572459229852,/emlid/fix,/mnt/data/sites/r4r-site/scanroot/freiberg/fg_20230524/fg_20230524_base
153,1,2,3,0,442.108,gps,455083166,1684917573,50.918501623333334,13.34214689,0.4928040000000001,0.0,0.0,0.0,0.5314410000000002,0.0,0.0,0.0,1866.2400000000002,1,4,8,2,1,0,2,-1,1,1,2,2,1684917573455610464,/emlid/fix,/mnt/data/sites/r4r-site/scanroot/freiberg/fg_20230524/fg_20230524_base
154,1,2,3,0,442.10200000000003,gps,460366200,1684917574,50.918503208333334,13.342152236666667,1.7503290000000005,0.0,0.0,0.0,1.882384000000001,0.0,0.0,0.0,6146.560000000001,1,4,8,2,1,0,2,-1,1,1,2,2,1684917574460656714,/emlid/fix,/mnt/data/sites/r4r-site/scanroot/freiberg/fg_20230524/fg_20230524_base
155,1,2,3,0,442.122,gps,458159425,1684917575,50.91850435833334,13.342152341666667,0.45562500000000006,0.0,0.0,0.0,0.5314410000000002,0.0,0.0,0.0,1866.2400000000002,1,4,8,2,1,0,2,-1,1,1,2,2,1684917575458346505,/emlid/fix,/mnt/data/sites/r4r-site/scanroot/freiberg/fg_20230524/fg_20230524_base
156,1,2,3,0,442.133,gps,458542685,1684917576,50.91850369833333,13.342157416666666,0.6496360000000001,0.0,0.0,0.0,0.7534240000000002,0.0,0.0,0.0,2460.1600000000003,1,4,8,2,1,0,2,-1,1,1,2,2,1684917576466784555,/emlid/fix,/mnt/data/sites/r4r-site/scanroot/freiberg/fg_20230524/fg_20230524_base
157,1,2,3,0,442.061,gps,456803457,1684917577,50.9185025,13.342161191666667,0.6496360000000001,0.0,0.0,0.0,0.7534240000000002,0.0,0.0,0.0,2460.1600000000003,1,4,8,2,1,0,2,-1,1,1,2,2,1684917577457077132,/emlid/fix,/mnt/data/sites/r4r-site/scanroot/freiberg/fg_20230524/fg_20230524_base
158,1,2,3,0,442.121,gps,459693944,1684917578,50.918497548333335,13.342168156666666,0.6496360000000001,0.0,0.0,0.0,0.7534240000000002,0.0,0.0,0.0,2460.1600000000003,1,4,8,2,1,0,2,-1,1,1,2,2,1684917578460140980,/emlid/fix,/mnt/data/sites/r4r-site/scanroot/freiberg/fg_20230524/fg_20230524_base
159,1,2,3,0,442.183,gps,460696226,1684917579,50.91849066333333,13.342176973333334,0.6496360000000001,0.0,0.0,0.0,0.7534240000000002,0.0,0.0,0.0,2460.1600000000003,1,4,8,2,1,0,2,-1,1,1,2,2,1684917579461022649,/emlid/fix,/mnt/data/sites/r4r-site/scanroot/freiberg/fg_20230524/fg_20230524_base
160,1,2,3,0,442.177,gps,460533063,1684917580,50.91848413333334,13.342185578333334,0.3271840000000001,0.0,0.0,0.0,0.3794560000000001,0.0,0.0,0.0,1239.0400000000002,1,4,8,2,1,0,2,-1,1,1,2,2,1684917580460763148,/emlid/fix,/mnt/data/sites/r4r-site/scanroot/freiberg/fg_20230524/fg_20230524_base
161,1,2,3,0,442.221,gps,459066916,1684917581,50.918477413333335,13.342192621666667,0.3271840000000001,0.0,0.0,0.0,0.3794560000000001,0.0,0.0,0.0,1239.0400000000002,1,4,8,2,1,0,2,-1,1,1,0,2,1684917581459231071,/emlid/fix,/mnt/data/sites/r4r-site/scanroot/freiberg/fg_20230524/fg_20230524_base
162,1,2,3,0,442.311,gps,461527222,1684917582,50.91847087166666,13.342198836666666,0.4651240000000001,0.0,0.0,0.0,0.627264,0.0,0.0,0.0,1239.0400000000002,1,4,8,2,1,0,2,-1,1,1,0,2,1684917582461870639,/emlid/fix,/mnt/data/sites/r4r-site/scanroot/freiberg/fg_20230524/fg_20230524_base
163,1,2,3,0,442.454,gps,462194960,1684917583,50.91846503166666,13.342205673333334,1.0712249999999999,0.0,0.0,0.0,1.430416,0.0,0.0,0.0,1354.2399999999998,1,4,8,2,1,0,2,-1,1,1,2,2,1684917583462506500,/emlid/fix,/mnt/data/sites/r4r-site/scanroot/freiberg/fg_20230524/fg_20230524_base
164,1,2,3,0,442.596,gps,464028137,1684917584,50.918459845,13.342213141666667,0.6480249999999999,0.0,0.0,0.0,0.9781209999999998,0.0,0.0,0.0,1354.2399999999998,1,4,8,2,1,0,2,-1,1,1,0,2,1684917584464302264,/emlid/fix,/mnt/data/sites/r4r-site/scanroot/freiberg/fg_20230524/fg_20230524_base
165,1,2,3,0,442.784,gps,460128779,1684917585,50.91845552666667,13.342220153333333,3.055503999999999,0.0,0.0,0.0,5.289999999999999,0.0,0.0,0.0,5416.959999999999,1,4,8,2,1,0,2,-1,1,1,0,2,1684917585460482360,/emlid/fix,/mnt/data/sites/r4r-site/scanroot/freiberg/fg_20230524/fg_20230524_base
166,1,2,3,0,442.926,gps,460468666,1684917586,50.918455126666665,13.342219996666667,7.263024999999999,0.0,0.0,0.0,10.889999999999999,0.0,0.0,0.0,7744.0,1,4,8,2,1,0,2,-1,1,1,2,2,1684917586460770753,/emlid/fix,/mnt/data/sites/r4r-site/scanroot/freiberg/fg_20230524/fg_20230524_base
167,1,2,3,0,442.989,gps,460288869,1684917587,50.918452458333334,13.342223945,4.601025,0.0,0.0,0.0,10.889999999999999,0.0,0.0,0.0,7744.0,1,4,8,2,1,0,2,-1,1,1,0,2,1684917587460935451,/emlid/fix,/mnt/data/sites/r4r-site/scanroot/freiberg/fg_20230524/fg_20230524_base
168,1,2,3,0,443.013,gps,463983015,1684917588,50.918449128333336,13.342227753333333,5.593224999999999,0.0,0.0,0.0,13.176900000000002,0.0,0.0,0.0,7744.0,1,4,8,2,1,0,2,-1,1,1,0,2,1684917588465152453,/emlid/fix,/mnt/data/sites/r4r-site/scanroot/freiberg/fg_20230524/fg_20230524_base
169,1,2,3,0,443.043,gps,462973052,1684917589,50.918446425,13.342231323333333,17.305600000000002,0.0,0.0,0.0,40.96000000000001,0.0,0.0,0.0,16384.0,1,4,8,2,1,0,2,-1,1,1,0,2,1684917589464041229,/emlid/fix,/mnt/data/sites/r4r-site/scanroot/freiberg/fg_20230524/fg_20230524_base
170,1,2,3,0,443.082,gps,463061277,1684917590,50.91844560333333,13.342232426666667,20.793599999999998,0.0,0.0,0.0,52.998400000000004,0.0,0.0,0.0,16384.0,1,4,8,2,1,0,2,-1,1,1,0,2,1684917590463647565,/emlid/fix,/mnt/data/sites/r4r-site/scanroot/freiberg/fg_20230524/fg_20230524_base
171,1,2,3,0,443.19100000000003,gps,459943862,1684917591,50.91844278333333,13.342235536666667,21.5296,0.0,0.0,0.0,64.0,0.0,0.0,0.0,16384.0,1,4,8,2,1,0,2,-1,1,1,0,2,1684917591460291530,/emlid/fix,/mnt/data/sites/r4r-site/scanroot/freiberg/fg_20230524/fg_20230524_base
172,1,2,3,0,443.261,gps,460589843,1684917592,50.91843956666666,13.342238986666667,32.2624,0.0,0.0,0.0,77.44000000000001,0.0,0.0,0.0,16384.0,1,4,8,2,1,0,2,-1,1,1,0,2,1684917592461166519,/emlid/fix,/mnt/data/sites/r4r-site/scanroot/freiberg/fg_20230524/fg_20230524_base
173,1,2,3,0,443.305,gps,460826627,1684917593,50.91843737333333,13.342242841666666,31.091775999999996,0.0,0.0,0.0,96.82559999999997,0.0,0.0,0.0,17213.44,1,4,8,2,1,0,2,-1,1,1,0,2,1684917593461631611,/emlid/fix,/mnt/data/sites/r4r-site/scanroot/freiberg/fg_20230524/fg_20230524_base
174,1,2,3,0,443.624,gps,460607536,1684917594,50.91843502333333,13.342245161666666,23.736383999999997,0.0,0.0,0.0,56.8516,0.0,0.0,0.0,8611.84,1,4,8,2,1,0,2,-1,1,1,0,2,1684917594461017754,/emlid/fix,/mnt/data/sites/r4r-site/scanroot/freiberg/fg_20230524/fg_20230524_base
175,1,2,3,0,444.14300000000003,gps,461419014,1684917595,50.918432081666666,13.342252648333334,67.24,0.0,0.0,0.0,131.79039999999998,0.0,0.0,0.0,17213.44,1,4,8,2,1,0,2,-1,1,1,0,2,1684917595461817831,/emlid/fix,/mnt/data/sites/r4r-site/scanroot/freiberg/fg_20230524/fg_20230524_base
176,1,2,3,0,444.384,gps,455579816,1684917596,50.91842519666667,13.342260646666666,81.3604,0.0,0.0,0.0,131.79039999999998,0.0,0.0,0.0,17213.44,1,4,8,2,1,0,2,-1,1,1,0,2,1684917596455784856,/emlid/fix,/mnt/data/sites/r4r-site/scanroot/freiberg/fg_20230524/fg_20230524_base
177,1,2,3,0,444.556,gps,458062451,1684917597,50.918421271666666,13.342265861666666,56.8516,0.0,0.0,0.0,75.68999999999998,0.0,0.0,0.0,8611.84,1,4,8,2,1,0,2,-1,1,1,0,2,1684917597458516397,/emlid/fix,/mnt/data/sites/r4r-site/scanroot/freiberg/fg_20230524/fg_20230524_base
178,1,2,3,0,444.928,gps,455160244,1684917598,50.91841822166667,13.342270843333333,131.79039999999998,0.0,0.0,0.0,131.79039999999998,0.0,0.0,0.0,17213.44,1,4,8,2,1,0,2,-1,1,1,0,2,1684917598455482167,/emlid/fix,/mnt/data/sites/r4r-site/scanroot/freiberg/fg_20230524/fg_20230524_base
179,1,2,3,0,445.798,gps,453718194,1684917599,50.91841367166667,13.34227815,63.202499999999986,0.0,0.0,0.0,47.4721,0.0,0.0,0.0,7191.04,1,4,8,2,1,0,2,-1,1,1,0,2,1684917599453993686,/emlid/fix,/mnt/data/sites/r4r-site/scanroot/freiberg/fg_20230524/fg_20230524_base
180,1,2,3,0,446.194,gps,456137000,1684917600,50.91841039333333,13.342282481666667,18.6624,0.0,0.0,0.0,12.320100000000002,0.0,0.0,0.0,1866.2400000000002,1,4,8,2,1,0,2,-1,1,1,0,2,1684917600466868354,/emlid/fix,/mnt/data/sites/r4r-site/scanroot/freiberg/fg_20230524/fg_20230524_base
181,1,2,3,0,445.38,gps,455325948,1684917601,50.918404708333334,13.342286993333333,21.068099999999998,0.0,0.0,0.0,14.2884,0.0,0.0,0.0,1866.2400000000002,1,4,8,2,1,0,2,-1,1,1,0,2,1684917601455605223,/emlid/fix,/mnt/data/sites/r4r-site/scanroot/freiberg/fg_20230524/fg_20230524_base
182,1,2,3,0,445.385,gps,456555014,1684917602,50.91840190833334,13.342290658333333,16.402500000000007,0.0,0.0,0.0,10.497600000000002,0.0,0.0,0.0,1866.2400000000002,1,4,8,2,1,0,2,-1,1,1,0,2,1684917602456884524,/emlid/fix,/mnt/data/sites/r4r-site/scanroot/freiberg/fg_20230524/fg_20230524_base
183,1,2,3,0,444.64300000000003,gps,454552156,1684917603,50.91839516333334,13.342297835,18.6624,0.0,0.0,0.0,8.820900000000004,0.0,0.0,0.0,1866.2400000000002,1,4,8,2,1,0,2,-1,1,1,0,2,1684917603454824890,/emlid/fix,/mnt/data/sites/r4r-site/scanroot/freiberg/fg_20230524/fg_20230524_base
184,1,2,3,0,444.255,gps,455566220,1684917604,50.91839176,13.342301651666666,193.7664,0.0,0.0,0.0,91.5849,0.0,0.0,0.0,19376.639999999996,1,4,8,2,1,0,2,-1,1,1,0,2,1684917604455801988,/emlid/fix,/mnt/data/sites/r4r-site/scanroot/freiberg/fg_20230524/fg_20230524_base
185,1,2,3,0,444.158,gps,455860203,1684917605,50.91839131166667,13.342306095,81.0,0.0,0.0,0.0,36.0,0.0,0.0,0.0,9216.0,1,4,8,2,1,0,2,-1,1,1,0,2,1684917605456203395,/emlid/fix,/mnt/data/sites/r4r-site/scanroot/freiberg/fg_20230524/fg_20230524_base
186,1,2,3,0,443.802,gps,457453301,1684917606,50.918386356666666,13.342310708333333,104.03999999999999,0.0,0.0,0.0,36.0,0.0,0.0,0.0,9216.0,1,4,8,2,1,0,2,-1,1,1,2,2,1684917606458080408,/emlid/fix,/mnt/data/sites/r4r-site/scanroot/freiberg/fg_20230524/fg_20230524_base
187,1,2,3,0,443.663,gps,456661935,1684917607,50.91837859333334,13.342318431666667,148.35239999999996,0.0,0.0,0.0,75.68999999999998,0.0,0.0,0.0,19376.639999999996,1,4,8,2,1,0,2,-1,1,1,0,2,1684917607456882058,/emlid/fix,/mnt/data/sites/r4r-site/scanroot/freiberg/fg_20230524/fg_20230524_base
188,1,2,3,0,443.696,gps,453381341,1684917608,50.91837074166666,13.342324761666667,81.0,0.0,0.0,0.0,36.0,0.0,0.0,0.0,9216.0,1,4,8,2,1,0,2,-1,1,1,0,2,1684917608453611999,/emlid/fix,/mnt/data/sites/r4r-site/scanroot/freiberg/fg_20230524/fg_20230524_base
189,1,2,3,0,443.989,gps,454912671,1684917609,50.918367198333335,13.34232796,92.16000000000003,0.0,0.0,0.0,36.0,0.0,0.0,0.0,9216.0,1,4,8,2,1,0,2,-1,1,1,2,2,1684917609455221176,/emlid/fix,/mnt/data/sites/r4r-site/scanroot/freiberg/fg_20230524/fg_20230524_base
190,1,2,3,0,444.225,gps,454154824,1684917610,50.918360515,13.342335338333333,56.25,0.0,0.0,0.0,18.49,0.0,0.0,0.0,6400.0,1,4,8,2,1,0,2,-1,1,1,2,2,1684917610454416720,/emlid/fix,/mnt/data/sites/r4r-site/scanroot/freiberg/fg_20230524/fg_20230524_base
191,1,2,3,0,444.56600000000003,gps,453868848,1684917611,50.918351791666666,13.342346143333334,49.0,0.0,0.0,0.0,15.602500000000001,0.0,0.0,0.0,6400.0,1,4,8,2,1,0,2,-1,1,1,2,2,1684917611454242956,/emlid/fix,/mnt/data/sites/r4r-site/scanroot/freiberg/fg_20230524/fg_20230524_base
192,1,2,3,0,444.49,gps,453287391,1684917612,50.91834372833333,13.342354605,49.0,0.0,0.0,0.0,13.690000000000001,0.0,0.0,0.0,6400.0,1,4,8,2,1,0,2,-1,1,1,0,2,1684917612453663018,/emlid/fix,/mnt/data/sites/r4r-site/scanroot/freiberg/fg_20230524/fg_20230524_base
193,1,2,3,0,444.73,gps,454775398,1684917613,50.91833699666667,13.342363948333333,42.25,0.0,0.0,0.0,12.959999999999997,0.0,0.0,0.0,6400.0,1,4,8,2,1,0,2,-1,1,1,0,2,1684917613455139992,/emlid/fix,/mnt/data/sites/r4r-site/scanroot/freiberg/fg_20230524/fg_20230524_base
194,1,2,3,0,444.786,gps,454546755,1684917614,50.918329021666665,13.34237016,81.0,0.0,0.0,0.0,21.3444,0.0,0.0,0.0,9216.0,1,4,8,2,1,0,2,-1,1,1,0,2,1684917614454960304,/emlid/fix,/mnt/data/sites/r4r-site/scanroot/freiberg/fg_20230524/fg_20230524_base
195,1,2,3,0,444.611,gps,452781999,1684917615,50.918320916666666,13.342377978333333,81.0,0.0,0.0,0.0,23.040000000000006,0.0,0.0,0.0,9216.0,1,4,8,2,1,0,2,-1,1,1,0,2,1684917615453064003,/emlid/fix,/mnt/data/sites/r4r-site/scanroot/freiberg/fg_20230524/fg_20230524_base
196,1,2,3,0,444.75600000000003,gps,454148067,1684917616,50.91831260833333,13.34238894,64.0,0.0,0.0,0.0,17.222499999999997,0.0,0.0,0.0,6400.0,1,4,8,2,1,0,2,-1,1,1,2,2,1684917616454425409,/emlid/fix,/mnt/data/sites/r4r-site/scanroot/freiberg/fg_20230524/fg_20230524_base
197,1,2,3,0,444.975,gps,451394059,1684917617,50.91830650333333,13.342399845,56.25,0.0,0.0,0.0,14.44,0.0,0.0,0.0,6400.0,1,4,8,2,1,0,2,-1,1,1,2,2,1684917617451670264,/emlid/fix,/mnt/data/sites/r4r-site/scanroot/freiberg/fg_20230524/fg_20230524_base
198,1,2,3,0,445.151,gps,454673735,1684917618,50.91829903666667,13.342408538333334,49.0,0.0,0.0,0.0,12.6025,0.0,0.0,0.0,6400.0,1,4,8,2,1,0,2,-1,1,1,2,2,1684917618454866697,/emlid/fix,/mnt/data/sites/r4r-site/scanroot/freiberg/fg_20230524/fg_20230524_base
199,1,2,3,0,445.152,gps,455431069,1684917619,50.918291446666665,13.342417685000001,42.25,0.0,0.0,0.0,12.25,0.0,0.0,0.0,6400.0,1,4,8,2,1,0,2,-1,1,1,2,2,1684917619455794274,/emlid/fix,/mnt/data/sites/r4r-site/scanroot/freiberg/fg_20230524/fg_20230524_base
200,1,2,3,0,445.332,gps,454706767,1684917620,50.91828323166666,13.342428093333334,42.25,0.0,0.0,0.0,10.890000000000002,0.0,0.0,0.0,6400.0,1,4,8,2,1,0,2,-1,1,1,2,2,1684917620455046632,/emlid/fix,/mnt/data/sites/r4r-site/scanroot/freiberg/fg_20230524/fg_20230524_base
201,1,2,3,0,445.434,gps,455988933,1684917621,50.918276606666666,13.342437076666666,36.0,0.0,0.0,0.0,11.2225,0.0,0.0,0.0,6400.0,1,4,8,2,1,0,2,-1,1,1,2,2,1684917621456319469,/emlid/fix,/mnt/data/sites/r4r-site/scanroot/freiberg/fg_20230524/fg_20230524_base
202,1,2,3,0,445.444,gps,453026706,1684917622,50.9182702,13.342445351666667,36.0,0.0,0.0,0.0,11.2225,0.0,0.0,0.0,6400.0,1,4,8,2,1,0,2,-1,1,1,2,2,1684917622453264519,/emlid/fix,/mnt/data/sites/r4r-site/scanroot/freiberg/fg_20230524/fg_20230524_base
203,1,2,3,0,445.347,gps,453747816,1684917623,50.918262668333334,13.342451608333333,36.0,0.0,0.0,0.0,11.902499999999998,0.0,0.0,0.0,6400.0,1,4,8,2,1,0,2,-1,1,1,2,2,1684917623453945425,/emlid/fix,/mnt/data/sites/r4r-site/scanroot/freiberg/fg_20230524/fg_20230524_base
204,1,2,3,0,445.40500000000003,gps,454832107,1684917624,50.918256701666664,13.342460581666666,36.0,0.0,0.0,0.0,11.902499999999998,0.0,0.0,0.0,6400.0,1,4,8,2,1,0,2,-1,1,1,0,2,1684917624455132321,/emlid/fix,/mnt/data/sites/r4r-site/scanroot/freiberg/fg_20230524/fg_20230524_base
205,1,2,3,0,445.05,gps,453918744,1684917625,50.918252198333334,13.342468173333334,42.25,0.0,0.0,0.0,17.222499999999997,0.0,0.0,0.0,6400.0,1,4,8,2,1,0,2,-1,1,1,2,2,1684917625454211008,/emlid/fix,/mnt/data/sites/r4r-site/scanroot/freiberg/fg_20230524/fg_20230524_base
206,1,2,3,0,444.729,gps,452519807,1684917626,50.91824810666667,13.342473716666667,36.0,0.0,0.0,0.0,16.402500000000007,0.0,0.0,0.0,6400.0,1,4,8,2,1,0,2,-1,1,1,0,2,1684917626452853105,/emlid/fix,/mnt/data/sites/r4r-site/scanroot/freiberg/fg_20230524/fg_20230524_base
207,1,2,3,0,444.688,gps,455053729,1684917627,50.918242033333335,13.342482651666666,36.0,0.0,0.0,0.0,18.49,0.0,0.0,0.0,6400.0,1,4,8,2,1,0,2,-1,1,1,0,2,1684917627455387501,/emlid/fix,/mnt/data/sites/r4r-site/scanroot/freiberg/fg_20230524/fg_20230524_base
208,1,2,3,0,444.641,gps,452123847,1684917628,50.918235286666665,13.342491248333333,42.25,0.0,0.0,0.0,22.5625,0.0,0.0,0.0,6400.0,1,4,8,2,1,0,2,-1,1,1,0,2,1684917628452293781,/emlid/fix,/mnt/data/sites/r4r-site/scanroot/freiberg/fg_20230524/fg_20230524_base
209,1,2,3,0,444.704,gps,452940148,1684917629,50.918229448333335,13.342502925,98.80359999999999,0.0,0.0,0.0,47.43076899999999,0.0,0.0,0.0,12904.96,1,4,8,2,1,0,2,-1,1,1,0,2,1684917629453262927,/emlid/fix,/mnt/data/sites/r4r-site/scanroot/freiberg/fg_20230524/fg_20230524_base
210,1,2,3,0,444.481,gps,454993179,1684917630,50.91822231166667,13.34251158,10.890000000000002,0.0,0.0,0.0,5.856400000000002,0.0,0.0,0.0,1239.0400000000002,1,4,8,2,1,0,2,-1,1,1,0,2,1684917630455267194,/emlid/fix,/mnt/data/sites/r4r-site/scanroot/freiberg/fg_20230524/fg_20230524_base
211,1,2,3,0,444.622,gps,458441317,1684917631,50.91821827166667,13.342517636666667,56.25,0.0,0.0,0.0,30.25,0.0,0.0,0.0,6400.0,1,4,8,2,1,0,2,-1,1,1,0,2,1684917631458790623,/emlid/fix,/mnt/data/sites/r4r-site/scanroot/freiberg/fg_20230524/fg_20230524_base
212,1,2,3,0,444.514,gps,455545321,1684917632,50.91821163,13.342521728333333,64.0,0.0,0.0,0.0,36.0,0.0,0.0,0.0,6400.0,1,4,8,2,1,0,2,-1,1,1,2,2,1684917632455907812,/emlid/fix,/mnt/data/sites/r4r-site/scanroot/freiberg/fg_20230524/fg_20230524_base
213,1,2,3,0,444.548,gps,454532617,1684917633,50.91820497333333,13.342531795,49.0,0.0,0.0,0.0,25.0,0.0,0.0,0.0,6400.0,1,4,8,2,1,0,2,-1,1,1,2,2,1684917633454762825,/emlid/fix,/mnt/data/sites/r4r-site/scanroot/freiberg/fg_20230524/fg_20230524_base
